<wpt lat="45.18262552087185" lon="9.157101326923815"><name>0 Campo Base Garibaldi</name><cmt>Trekking material_ books and maps;+39 0382-309171;https://www.viefrancigene.org/en/resource/accomodation/vf13-90-pavia-campo-base-garibaldi/</cmt><desc>Trekking material_ books and maps;+39 0382-309171;https://www.viefrancigene.org/en/resource/accomodation/vf13-90-pavia-campo-base-garibaldi/</desc></wpt>
<wpt lat="45.180705553003875" lon="9.153829172477096"><name>1 Ostello Santa Maria in Betlem</name><cmt>;+39 3313046459;https://www.viefrancigene.org/en/resource/accomodation/vf13-40-pavia-ostello-santa-maria-betlem/</cmt><desc>;+39 3313046459;https://www.viefrancigene.org/en/resource/accomodation/vf13-40-pavia-ostello-santa-maria-betlem/</desc></wpt>
<wpt lat="45.19612485584435" lon="9.124092642847149"><name>2 Pavia Ostello</name><cmt>;+39 0382528865;https://www.viefrancigene.org/en/resource/accomodation/vf13-90-pavia-pavia-ostello/</cmt><desc>;+39 0382528865;https://www.viefrancigene.org/en/resource/accomodation/vf13-90-pavia-pavia-ostello/</desc></wpt>
<wpt lat="45.11668578517899" lon="9.365824892440807"><name>3 Ostello Artemista</name><cmt>;+39 0382 729919;https://www.viefrancigene.org/en/resource/accomodation/vf13-n7-ostello-artemista/</cmt><desc>;+39 0382 729919;https://www.viefrancigene.org/en/resource/accomodation/vf13-n7-ostello-artemista/</desc></wpt>
<wpt lat="45.15782881884565" lon="9.39780714892242"><name>4 Parrocchia S. Cristina</name><cmt>open: end of march to mid october_ type: convents and parishes;+39 038270106, +39 3333429685;https://www.viefrancigene.org/en/resource/accomodation/vf14-scristina-e-bissone-parrocchia-di-scristina-e/</cmt><desc>open: end of march to mid october_ type: convents and parishes;+39 038270106, +39 3333429685;https://www.viefrancigene.org/en/resource/accomodation/vf14-scristina-e-bissone-parrocchia-di-scristina-e/</desc></wpt>
<wpt lat="45.1726888306914" lon="9.444305434843267"><name>5 Parrocchia San Michele Arcangelo</name><cmt>type: convents and parishes_ for: small groups_ open: summer;+39 038277116, +39 339 2792925;https://www.viefrancigene.org/en/resource/accomodation/vf14-20-miradolo-terme-casa-canonica-parrocchia-sm/</cmt><desc>type: convents and parishes_ for: small groups_ open: summer;+39 038277116, +39 339 2792925;https://www.viefrancigene.org/en/resource/accomodation/vf14-20-miradolo-terme-casa-canonica-parrocchia-sm/</desc></wpt>
<wpt lat="45.16176764027596" lon="9.553604437862298"><name>6 Ostello Grangia Benedettina</name><cmt>;+39 3483637103, +39 3351720018, +39 3356468587;https://www.viefrancigene.org/en/resource/accomodation/vf15-30-orio-litta-ostello-grangia-benedettina/</cmt><desc>;+39 3483637103, +39 3351720018, +39 3356468587;https://www.viefrancigene.org/en/resource/accomodation/vf15-30-orio-litta-ostello-grangia-benedettina/</desc></wpt>
<wpt lat="45.13222268577901" lon="9.557498969137344"><name>7 Ostello Ad Padum</name><cmt>;+39 3391268946, +39 0377802155;https://www.viefrancigene.org/en/resource/accomodation/vf15-95-corte-santandrea-ostello-compagnia-di-sige/</cmt><desc>;+39 3391268946, +39 0377802155;https://www.viefrancigene.org/en/resource/accomodation/vf15-95-corte-santandrea-ostello-compagnia-di-sige/</desc></wpt>
<wpt lat="45.0983265038448" lon="9.577211237239748"><name>8 Caupona Di Sigerico</name><cmt>for: small groups_ type: hostel;+39 0523.771607;https://www.viefrancigene.org/en/resource/accomodation/vf16-40-calendasco-caupona-di-sigerico/</cmt><desc>for: small groups_ type: hostel;+39 0523.771607;https://www.viefrancigene.org/en/resource/accomodation/vf16-40-calendasco-caupona-di-sigerico/</desc></wpt>
<wpt lat="45.05687990719425" lon="9.680667391595284"><name>9 Loc. Santa Maria Di Campagna Convento Francescani</name><cmt>nan;;nan</cmt><desc>nan;;nan</desc></wpt>
<wpt lat="45.05201720153836" lon="9.697756594095344"><name>10 Domus San Martino</name><cmt>type: bnb_ open: all year_ price: 60 for single 80 for double 100 for triple 120 for quad (may vary);+39 3491554608;https://www.viefrancigene.org/en/resource/accomodation/vf16-90-piacenza-domus-san-martino/</cmt><desc>type: bnb_ open: all year_ price: 60 for single 80 for double 100 for triple 120 for quad (may vary);+39 3491554608;https://www.viefrancigene.org/en/resource/accomodation/vf16-90-piacenza-domus-san-martino/</desc></wpt>
<wpt lat="45.025031445059696" lon="9.744410620414653"><name>11 Ostello San Pietro In Montale</name><cmt>;+39 0523614256;https://www.viefrancigene.org/en/resource/accomodation/vf16-100-piacenza-ostello-spietro/</cmt><desc>;+39 0523614256;https://www.viefrancigene.org/en/resource/accomodation/vf16-100-piacenza-ostello-spietro/</desc></wpt>
<wpt lat="45.043134951307636" lon="9.70844396327492"><name>12 Ostello Del Teatro</name><cmt>open for pilgrims: april to september (open all year_ getting free bed maybe possible);+39 0523 469599;https://www.viefrancigene.org/en/resource/accomodation/vf16-90-piacenza-ostello-del-teatro/</cmt><desc>open for pilgrims: april to september (open all year_ getting free bed maybe possible);+39 0523 469599;https://www.viefrancigene.org/en/resource/accomodation/vf16-90-piacenza-ostello-del-teatro/</desc></wpt>
<wpt lat="44.96511580487292" lon="9.852068753391276"><name>13 Parrocchia Santa Teresa Benedetta Dalla Croce</name><cmt>information seems to be old copy paste from Ospitale Ca Dei;+39 3334534501;https://www.viefrancigene.org/en/resource/accomodation/vf17-80-roveleto-di-cadeo-parrocchia-s-teresa-benedetta/</cmt><desc>information seems to be old copy paste from Ospitale Ca Dei;+39 3334534501;https://www.viefrancigene.org/en/resource/accomodation/vf17-80-roveleto-di-cadeo-parrocchia-s-teresa-benedetta/</desc></wpt>
<wpt lat="44.973960444721826" lon="9.83129202085947"><name>14 Ospitale Ca Dei</name><cmt>no singles;+39 3334534501;https://www.viefrancigene.org/en/resource/accomodation/vf17-80-cadeo-ospitale-ca-dei/</cmt><desc>no singles;+39 3334534501;https://www.viefrancigene.org/en/resource/accomodation/vf17-80-cadeo-ospitale-ca-dei/</desc></wpt>
<wpt lat="44.928119357095234" lon="9.910629664494676"><name>15 Parrocchia Di San Fiorenzo</name><cmt>;+39 3493016801, +39 0523982247;https://www.viefrancigene.org/en/resource/accomodation/vf17-20/</cmt><desc>;+39 3493016801, +39 0523982247;https://www.viefrancigene.org/en/resource/accomodation/vf17-20/</desc></wpt>
<wpt lat="44.926321133793074" lon="9.973645068017605"><name>16 Abbazia Chiaravalle Della Colomba</name><cmt>price: donation_ 7 beds_ convents and parishes_ open all year_ book asap;+39 3270284051;https://www.viefrancigene.org/en/resource/accomodation/vf17-20-alseno-abbazia-chiaravalle-della-colomba/</cmt><desc>price: donation_ 7 beds_ convents and parishes_ open all year_ book asap;+39 3270284051;https://www.viefrancigene.org/en/resource/accomodation/vf17-20-alseno-abbazia-chiaravalle-della-colomba/</desc></wpt>
<wpt lat="44.866119992730155" lon="10.058106708432797"><name>17 Ostello San Donnino</name><cmt>open: 1.4. to 31.10._ 10 beds_ price: 20.5 (opt towel 2.5);+39 3311367510;https://www.viefrancigene.org/en/resource/accomodation/vf18-80-fidenza-ostello-san-donnino/</cmt><desc>open: 1.4. to 31.10._ 10 beds_ price: 20.5 (opt towel 2.5);+39 3311367510;https://www.viefrancigene.org/en/resource/accomodation/vf18-80-fidenza-ostello-san-donnino/</desc></wpt>
<wpt lat="44.7945011088624" lon="10.090574693223125"><name>19 La Famiglia Del Pellegrino</name><cmt>;+39 3337942402, +39 3356398600;http://www.famigliadelpellegrino.it/</cmt><desc>;+39 3337942402, +39 3356398600;http://www.famigliadelpellegrino.it/</desc></wpt>
<wpt lat="44.77230088832228" lon="10.097533941249866"><name>20 Fraternità Francescana di Betania</name><cmt>;+39 0521.624.052;https://www.viefrancigene.org/en/resource/accomodation/vf19-95-costamezzana-comunita-di-betania/</cmt><desc>;+39 0521.624.052;https://www.viefrancigene.org/en/resource/accomodation/vf19-95-costamezzana-comunita-di-betania/</desc></wpt>
<wpt lat="44.75482437473577" lon="10.140311491019588"><name>21 Oratorio Don Bosco</name><cmt>type: convents and parishes;+39 0525422136, +39 0525 420447;https://www.viefrancigene.org/en/resource/accomodation/vf18-80-medesano-parrocchia-spantaleone/</cmt><desc>type: convents and parishes;+39 0525422136, +39 0525 420447;https://www.viefrancigene.org/en/resource/accomodation/vf18-80-medesano-parrocchia-spantaleone/</desc></wpt>
<wpt lat="44.36431087525412" lon="10.669829532920712"><name>22 Ostello Parrocchia Santa Margherita Vergine E Martire</name><cmt>type: convents and parishes_ floor spots;+39 052556258;https://www.viefrancigene.org/en/resource/accomodation/vf19-20-fornovo-di-taro-parrocchia-smargherita-ver/</cmt><desc>type: convents and parishes_ floor spots;+39 052556258;https://www.viefrancigene.org/en/resource/accomodation/vf19-20-fornovo-di-taro-parrocchia-smargherita-ver/</desc></wpt>
<wpt lat="44.691309080007365" lon="10.097344954271758"><name>23 Ostello Parrocchia Santa Maria Assunta</name><cmt>open all year_ 4 beds_ type: convents and parishes;+39 3332194636, +39 05252218;https://www.viefrancigene.org/en/resource/accomodation/vf19-10-fornovo-di-taro-parrocchia-assunzione-di-m/</cmt><desc>open all year_ 4 beds_ type: convents and parishes;+39 3332194636, +39 05252218;https://www.viefrancigene.org/en/resource/accomodation/vf19-10-fornovo-di-taro-parrocchia-assunzione-di-m/</desc></wpt>
<wpt lat="44.59522584214005" lon="10.122909918106469"><name>24 La Locanda Nel Vento</name><cmt>two double rooms;+39 3356621523;https://www.viefrancigene.org/en/resource/accomodation/vf20-60-calestano-la-locanda-nel-vento/</cmt><desc>two double rooms;+39 3356621523;https://www.viefrancigene.org/en/resource/accomodation/vf20-60-calestano-la-locanda-nel-vento/</desc></wpt>
<wpt lat="44.58516545325356" lon="10.033963705189986"><name>25 Ostello Di Cassio</name><cmt>;+39 05251700885, +39 3516111362;https://www.viefrancigene.org/en/resource/accomodation/vf19-25-cassio-ostello-di-cassio/</cmt><desc>;+39 05251700885, +39 3516111362;https://www.viefrancigene.org/en/resource/accomodation/vf19-25-cassio-ostello-di-cassio/</desc></wpt>
<wpt lat="44.56077485585181" lon="10.014051992197329"><name>26 Pop Biutiful</name><cmt>open all year_ booking recommended_ 20 per night;+39 3335287812;https://www.viefrancigene.org/en/resource/accomodation/vf20-95-cavazzola-pop-biutiful/</cmt><desc>open all year_ booking recommended_ 20 per night;+39 3335287812;https://www.viefrancigene.org/en/resource/accomodation/vf20-95-cavazzola-pop-biutiful/</desc></wpt>
<wpt lat="44.47203379111828" lon="9.930235294386579"><name>27 Capanna TWIN</name><cmt>open august - sep_ single 20 without sheets;+39 3479069545, +39 3348696728;https://www.viefrancigene.org/en/resource/accomodation/vf21-90-passo-della-cisa-capanna-twin/</cmt><desc>open august - sep_ single 20 without sheets;+39 3479069545, +39 3348696728;https://www.viefrancigene.org/en/resource/accomodation/vf21-90-passo-della-cisa-capanna-twin/</desc></wpt>
<wpt lat="44.47164175054763" lon="9.927604542011562"><name>28 Ostellio Passo Della Cisa</name><cmt>;+39 0525 64153;nan</cmt><desc>;+39 0525 64153;nan</desc></wpt>
<wpt lat="44.422237105503655" lon="9.942386229090133"><name>29 Temperance</name><cmt>type: private house_ price: donation;+39 3757825734;https://www.viefrancigene.org/en/resource/accomodation/vf22-70-pontremoli-temperance/</cmt><desc>type: private house_ price: donation;+39 3757825734;https://www.viefrancigene.org/en/resource/accomodation/vf22-70-pontremoli-temperance/</desc></wpt>
<wpt lat="44.379983376329115" lon="9.881339935697403"><name>30 Ostello Castello Del Piagnaro</name><cmt>type: convents and parishes_ closed on mondays;+39 0187831439;https://www.viefrancigene.org/en/resource/accomodation/vf22-30-pontremoli-castello-del-piagnaro/</cmt><desc>type: convents and parishes_ closed on mondays;+39 0187831439;https://www.viefrancigene.org/en/resource/accomodation/vf22-30-pontremoli-castello-del-piagnaro/</desc></wpt>
<wpt lat="44.376064043176186" lon="9.886032565400669"><name>31 Convento Padri Cappuccini Di Pontremoli</name><cmt>lots of space_ price: donation_ official checkin: 15 to 19;+39 0187830395, +39 3391956770;https://www.viefrancigene.org/en/resource/accomodation/vf22-90-pontremoli-ostello-dei-frati-cappuccini/_ https://cappuccinipontremoli.it/ospitalita/</cmt><desc>lots of space_ price: donation_ official checkin: 15 to 19;+39 0187830395, +39 3391956770;https://www.viefrancigene.org/en/resource/accomodation/vf22-90-pontremoli-ostello-dei-frati-cappuccini/_ https://cappuccinipontremoli.it/ospitalita/</desc></wpt>
<wpt lat="44.37585287413812" lon="9.881720333615338"><name>32 Seminario Di Pontremoli</name><cmt>;+39 3333321782;nan</cmt><desc>;+39 3333321782;nan</desc></wpt>
<wpt lat="44.39540373975214" lon="10.476984616861985"><name>33 Ostello Del Pellegrino</name><cmt>;;nan</cmt><desc>;;nan</desc></wpt>
<wpt lat="44.30127568120002" lon="9.9608893665349"><name>34 Gredo Antica Dimora</name><cmt>open all year_ min. two people_ 20 per night incl. breakfast;+39 3494275289;https://www.viefrancigene.org/en/resource/accomodation/vf23-50-filetto-gredo-antica-dimora/</cmt><desc>open all year_ min. two people_ 20 per night incl. breakfast;+39 3494275289;https://www.viefrancigene.org/en/resource/accomodation/vf23-50-filetto-gredo-antica-dimora/</desc></wpt>
<wpt lat="44.20748062518505" lon="9.967984681665866"><name>35 Abbazia Di San Caprasio</name><cmt>type: convents and parishes_ open all year;+39 01871780776, +39 3669778206;https://www.viefrancigene.org/en/resource/accomodation/vf23-10-aulla-abbazia-di-san-caprasio/</cmt><desc>type: convents and parishes_ open all year;+39 01871780776, +39 3669778206;https://www.viefrancigene.org/en/resource/accomodation/vf23-10-aulla-abbazia-di-san-caprasio/</desc></wpt>
<wpt lat="44.11263622147313" lon="9.954572188637407"><name>36 Parrocchia Del Carmine</name><cmt>;+39 01871500059, +39 3487294423, +39 0187620260;https://www.viefrancigene.org/en/resource/accomodation/vf24-50-sarzana-parrocchia-del-carmine/</cmt><desc>;+39 01871500059, +39 3487294423, +39 0187620260;https://www.viefrancigene.org/en/resource/accomodation/vf24-50-sarzana-parrocchia-del-carmine/</desc></wpt>
<wpt lat="44.114167121837156" lon="9.968841689328348"><name>37 Cà Nardi</name><cmt>open all year_ 2 available beds_ type: private appartment;+39 3534302954;https://www.viefrancigene.org/en/resource/accomodation/vf24-50-sarzana-ca-nardi/</cmt><desc>open all year_ 2 available beds_ type: private appartment;+39 3534302954;https://www.viefrancigene.org/en/resource/accomodation/vf24-50-sarzana-ca-nardi/</desc></wpt>
<wpt lat="44.10103471421531" lon="9.991018191585065"><name>38 Ospitalità Sant’Antonio</name><cmt>;+39 3770497736, +39 0187673530;nan</cmt><desc>;+39 3770497736, +39 0187673530;nan</desc></wpt>
<wpt lat="44.046758326363985" lon="10.062339793907352"><name>39 Parrocchia San Pietro Apostolo</name><cmt>;+39 0585857203, +39 3388333413;nan</cmt><desc>;+39 0585857203, +39 3388333413;nan</desc></wpt>
<wpt lat="44.05497643227092" lon="10.052949309556082"><name>40 BnB New Life</name><cmt>;+39 3737482862;https://www.viefrancigene.org/en/resource/accomodation/vf25-60-avenza-new-life/</cmt><desc>;+39 3737482862;https://www.viefrancigene.org/en/resource/accomodation/vf25-60-avenza-new-life/</desc></wpt>
<wpt lat="44.047089913087376" lon="10.06177770287528"><name>41 Ostello Antonio Mazzi</name><cmt>open all year_ price: donation;+39 0585850273;https://www.viefrancigene.org/en/resource/accomodation/vf25-85-avenza-ostello/</cmt><desc>open all year_ price: donation;+39 0585850273;https://www.viefrancigene.org/en/resource/accomodation/vf25-85-avenza-ostello/</desc></wpt>
<wpt lat="44.03561654842385" lon="10.143815659314502"><name>42 Ostello Palazzo Nizza</name><cmt>;+39 05851886345, +39 3899836310, +39 0585914188;https://www.viefrancigene.org/en/resource/accomodation/vf25-30-massa-ostello-palazzo-nizza/</cmt><desc>;+39 05851886345, +39 3899836310, +39 0585914188;https://www.viefrancigene.org/en/resource/accomodation/vf25-30-massa-ostello-palazzo-nizza/</desc></wpt>
<wpt lat="44.01463801960287" lon="10.166505832650664"><name>43 Ostello Parrocchiale "Il Pane E La Rosa"</name><cmt>open end of march to beginning of november;+39 3534302467;https://www.viefrancigene.org/en/resource/accomodation/vf26-20-montignoso-ostello-parrocchiale-il-pane-e-la-rosa/</cmt><desc>open end of march to beginning of november;+39 3534302467;https://www.viefrancigene.org/en/resource/accomodation/vf26-20-montignoso-ostello-parrocchiale-il-pane-e-la-rosa/</desc></wpt>
<wpt lat="43.95830738583797" lon="10.233724379619066"><name>44 Casa Diocesana La Rocca</name><cmt>open all year_ type: tourist home;+39 0584793094;https://www.viefrancigene.org/en/resource/accomodation/vf25-10-pietrasanta-casa-diocesana-la-rocca/</cmt><desc>open all year_ type: tourist home;+39 0584793094;https://www.viefrancigene.org/en/resource/accomodation/vf25-10-pietrasanta-casa-diocesana-la-rocca/</desc></wpt>
<wpt lat="43.93093313882878" lon="10.266048153090853"><name>45 La Selvaiana</name><cmt>;+39 3894308212;https://www.viefrancigene.org/en/resource/accomodation/vf24-80-pianore-la-selvaiana/</cmt><desc>;+39 3894308212;https://www.viefrancigene.org/en/resource/accomodation/vf24-80-pianore-la-selvaiana/</desc></wpt>
<wpt lat="43.93847460549575" lon="10.31131621210416"><name>46 Ostello Del Pellegrino</name><cmt>price 18 per night;+39 3332672436;https://www.viefrancigene.org/en/resource/accomodation/vf26-20-camaiore-ostello-del-pellegrino/</cmt><desc>price 18 per night;+39 3332672436;https://www.viefrancigene.org/en/resource/accomodation/vf26-20-camaiore-ostello-del-pellegrino/</desc></wpt>
<wpt lat="43.90139492817399" lon="10.37832436204734"><name>47 Casa Del Pellegrino</name><cmt>type: convents and parishes;+39 0584956028, +39 3276948204;https://www.viefrancigene.org/en/resource/accomodation/vf25-30-camaiore-parrocchia-san-martino/</cmt><desc>type: convents and parishes;+39 0584956028, +39 3276948204;https://www.viefrancigene.org/en/resource/accomodation/vf25-30-camaiore-parrocchia-san-martino/</desc></wpt>
<wpt lat="43.888713" lon="10.412275"><name>48 Casa di Elio e Gabriella</name><cmt>open all year_ price: donation;0039 349 4036369, 0039 347 9813003;https://www.viefrancigene.org/en/resource/accomodation/vf27-40-piazzano-casa-di-elio-e-gabriella/</cmt><desc>open all year_ price: donation;0039 349 4036369, 0039 347 9813003;https://www.viefrancigene.org/en/resource/accomodation/vf27-40-piazzano-casa-di-elio-e-gabriella/</desc></wpt>
<wpt lat="43.84012201268073" lon="10.507613934138027"><name>50 L'Ospitale Di San Martino E San Giacomo</name><cmt>open 1.6. - 30.9._ price: donation_ communal dinner and breakfast;+39 3334461186;https://www.viefrancigene.org/en/resource/accomodation/vf27-90-lucca-ospitale-di-san-martino-e-sgiacomo/</cmt><desc>open 1.6. - 30.9._ price: donation_ communal dinner and breakfast;+39 3334461186;https://www.viefrancigene.org/en/resource/accomodation/vf27-90-lucca-ospitale-di-san-martino-e-sgiacomo/</desc></wpt>
<wpt lat="43.84790409879644" lon="10.509658084376492"><name>51 Pellegrinaio San Davino</name><cmt>open all year_ price: donation;+39 3661062641;https://www.viefrancigene.org/en/resource/accomodation/vf27-85-lucca-pellegrinaio-san-davino/</cmt><desc>open all year_ price: donation;+39 3661062641;https://www.viefrancigene.org/en/resource/accomodation/vf27-85-lucca-pellegrinaio-san-davino/</desc></wpt>
<wpt lat="43.8508887230628" lon="10.571922521309487"><name>52 Ostello La Salana</name><cmt>type: hostel;+39 3397237912, +39 0583414292;https://www.viefrancigene.org/en/resource/accomodation/vf28-20-capannori-ostello-la-salana/</cmt><desc>type: hostel;+39 3397237912, +39 0583414292;https://www.viefrancigene.org/en/resource/accomodation/vf28-20-capannori-ostello-la-salana/</desc></wpt>
<wpt lat="43.68207994419589" lon="10.854871958135076"><name>53 Convento San Francesco</name><cmt>type: convents and parishes;+39 0571 43051;https://www.viefrancigene.org/en/resource/accomodation/vf28-20-san-miniato-convento-sfrancesco/</cmt><desc>type: convents and parishes;+39 0571 43051;https://www.viefrancigene.org/en/resource/accomodation/vf28-20-san-miniato-convento-sfrancesco/</desc></wpt>
<wpt lat="43.82233964009983" lon="10.643894885229537"><name>54 Hospitale San Pietro</name><cmt>;+39 3384957991;nan</cmt><desc>;+39 3384957991;nan</desc></wpt>
<wpt lat="43.82282040455091" lon="10.646146733421705"><name>55 Hostal Badia</name><cmt>open all year_ price: donation;+39 338 4957991;https://www.viefrancigene.org/en/resource/accomodation/vf28-85-pozzeveri-hostal-badia/</cmt><desc>open all year_ price: donation;+39 338 4957991;https://www.viefrancigene.org/en/resource/accomodation/vf28-85-pozzeveri-hostal-badia/</desc></wpt>
<wpt lat="43.8148230312932" lon="10.676135531028672"><name>56 Foresteria La Pistacchia</name><cmt>open all year_ price: free;+39 3384957991;https://www.viefrancigene.org/en/resource/accomodation/vf28-90-altopascio-foresteria-la-pistacchia/</cmt><desc>open all year_ price: free;+39 3384957991;https://www.viefrancigene.org/en/resource/accomodation/vf28-90-altopascio-foresteria-la-pistacchia/</desc></wpt>
<wpt lat="43.81505239659044" lon="10.674766074817294"><name>57 Biblioteca Di Altopascio</name><cmt>;+39 0583240318;nan</cmt><desc>;+39 0583240318;nan</desc></wpt>
<wpt lat="43.80078767132265" lon="10.706832904328836"><name>58 Affittacamere Da Beppe</name><cmt>;+39 3456373838, +39 3469454158;https://www.viefrancigene.org/en/resource/accomodation/vf28-95-altopascio-affittacamere-da-beppe/</cmt><desc>;+39 3456373838, +39 3469454158;https://www.viefrancigene.org/en/resource/accomodation/vf28-95-altopascio-affittacamere-da-beppe/</desc></wpt>
<wpt lat="43.81971787255592" lon="10.708775089108697"><name>59 Il Picchio Verde</name><cmt>;+39 3357663272;https://www.viefrancigene.org/en/resource/accomodation/vf28-90-altopascio-colonica-il-picchio-verde/</cmt><desc>;+39 3357663272;https://www.viefrancigene.org/en/resource/accomodation/vf28-90-altopascio-colonica-il-picchio-verde/</desc></wpt>
<wpt lat="43.77702834132749" lon="10.715982392743937"><name>61 Casetta Del Pellegrino</name><cmt>open all year;+39 0571299931, +39 3669997072;https://www.viefrancigene.org/en/resource/accomodation/vf29-30-galleno-casetta-del-pellegrino/</cmt><desc>open all year;+39 0571299931, +39 3669997072;https://www.viefrancigene.org/en/resource/accomodation/vf29-30-galleno-casetta-del-pellegrino/</desc></wpt>
<wpt lat="43.541493239302035" lon="10.954699231693931"><name>62 Casa Baldi Via Francigena</name><cmt>price: 15/20 per night;+39 3703169774;https://www.viefrancigene.org/en/resource/accomodation/vf29-90-gambassi-terme-casa-baldi-francigena/</cmt><desc>price: 15/20 per night;+39 3703169774;https://www.viefrancigene.org/en/resource/accomodation/vf29-90-gambassi-terme-casa-baldi-francigena/</desc></wpt>
<wpt lat="43.74429967164034" lon="10.770411809215807"><name>63 Ostello Il Ponte Dei Medici</name><cmt>2.4 rating on GMaps_ unclear whether accept pilgrim pass;+39 0571297831;https://www.google.com/maps/place/Ostello+Ponte+de%E2%80%99+Medici/@43.7442818_10.7701406_19.81z/data=!4m10!3m9!1s0x132a7be2369163f1:0xe88329a797bb8173!5m3!1s2025-03-09!4m1!1i2!8m2!3d43.7442054!4d10.7703123!16s%2Fg%2F11ny030tm0!5m1!1e2?entry=ttu</cmt><desc>2.4 rating on GMaps_ unclear whether accept pilgrim pass;+39 0571297831;https://www.google.com/maps/place/Ostello+Ponte+de%E2%80%99+Medici/@43.7442818_10.7701406_19.81z/data=!4m10!3m9!1s0x132a7be2369163f1:0xe88329a797bb8173!5m3!1s2025-03-09!4m1!1i2!8m2!3d43.7442054!4d10.7703123!16s%2Fg%2F11ny030tm0!5m1!1e2?entry=ttu</desc></wpt>
<wpt lat="43.677475109256434" lon="10.85257299689746"><name>64 L'Hospitale Del Pellegrino</name><cmt>;+39 3934995126;nan</cmt><desc>;+39 3934995126;nan</desc></wpt>
<wpt lat="43.67944443585296" lon="10.85276156533606"><name>65 Ostello Di San Miniato</name><cmt>price: 19_ checkin from 16 to 18;+39 3387997004;https://www.viefrancigene.org/en/resource/accomodation/vf28-90-san-miniato-ostello-san-miniato/_ https://www.ostellosanminiato.com/tariffa-e-servizi/</cmt><desc>price: 19_ checkin from 16 to 18;+39 3387997004;https://www.viefrancigene.org/en/resource/accomodation/vf28-90-san-miniato-ostello-san-miniato/_ https://www.ostellosanminiato.com/tariffa-e-servizi/</desc></wpt>
<wpt lat="43.67848668187771" lon="10.847089071157617"><name>66 Affittacamere San Miniato</name><cmt>;+39 3533890839;https://www.viefrancigene.org/en/resource/accomodation/vf29-90-san-miniato-affittacamere-san-miniato/</cmt><desc>;+39 3533890839;https://www.viefrancigene.org/en/resource/accomodation/vf29-90-san-miniato-affittacamere-san-miniato/</desc></wpt>
<wpt lat="43.67606422322195" lon="10.841408393987042"><name>67 Casa Dalma</name><cmt>open: jan to nov (incl.)_ price: 20;+39 3481211017;https://www.viefrancigene.org/en/resource/accomodation/vf29-90-san-miniato-b-and-b-casa-dalma/</cmt><desc>open: jan to nov (incl.)_ price: 20;+39 3481211017;https://www.viefrancigene.org/en/resource/accomodation/vf29-90-san-miniato-b-and-b-casa-dalma/</desc></wpt>
<wpt lat="43.54523437756456" lon="11.061733419971148"><name>68 Agricamping Poggio ai Pini</name><cmt>;+39 3384783260;https://www.viefrancigene.org/en/resource/accomodation/vf29-95-certaldo-agricamping-poggio-ai-pini/</cmt><desc>;+39 3384783260;https://www.viefrancigene.org/en/resource/accomodation/vf29-95-certaldo-agricamping-poggio-ai-pini/</desc></wpt>
<wpt lat="43.54693533279927" lon="10.958680560881788"><name>69 Ostello Sigerico</name><cmt>open all year_ price: 16_ dinner: 16_ breakfast: 5;+39 3247968837, +39 0571639044;https://www.viefrancigene.org/en/resource/accomodation/vf-29-50-gambassi-terme-ostello-sigerico/</cmt><desc>open all year_ price: 16_ dinner: 16_ breakfast: 5;+39 3247968837, +39 0571639044;https://www.viefrancigene.org/en/resource/accomodation/vf-29-50-gambassi-terme-ostello-sigerico/</desc></wpt>
<wpt lat="43.539473578967446" lon="10.955414034535181"><name>71 Casa Giulia Sulla Francigena</name><cmt>;+39 3297323818;https://www.viefrancigene.org/en/resource/accomodation/vf29-90-gambassi-terme-casa-giulia-sulla-francigen/</cmt><desc>;+39 3297323818;https://www.viefrancigene.org/en/resource/accomodation/vf29-90-gambassi-terme-casa-giulia-sulla-francigen/</desc></wpt>
<wpt lat="43.53949371993314" lon="10.95509715801748"><name>72 Casa Alla Cisterna</name><cmt>price: 20;+39 3388940333;https://www.viefrancigene.org/en/resource/accomodation/vf30-90-gambassi-terme-casa-alla-cisterna/</cmt><desc>price: 20;+39 3388940333;https://www.viefrancigene.org/en/resource/accomodation/vf30-90-gambassi-terme-casa-alla-cisterna/</desc></wpt>
<wpt lat="43.40583501160365" lon="11.209528571786644"><name>73 Parrocchia San Michele</name><cmt>;+39 335 6651581, +39 335 6651581;https://www.viefrancigene.org/en/resource/accomodation/vf30-70-castellina-chianti-parrocchia-smichele/</cmt><desc>;+39 335 6651581, +39 335 6651581;https://www.viefrancigene.org/en/resource/accomodation/vf30-70-castellina-chianti-parrocchia-smichele/</desc></wpt>
<wpt lat="43.45354690293833" lon="11.054033145778426"><name>74 Villaggio Del Pellegrino (Camping Boschetto Di Piemma)</name><cmt>open april to october_ 20 for a bed;+39 0577907134;https://www.viefrancigene.org/en/resource/accomodation/vf31-90-san-gimignano-il-villaggio-del-pellegrino/</cmt><desc>open april to october_ 20 for a bed;+39 0577907134;https://www.viefrancigene.org/en/resource/accomodation/vf31-90-san-gimignano-il-villaggio-del-pellegrino/</desc></wpt>
<wpt lat="43.47074151158697" lon="11.041597439801507"><name>75 Ospitale Dei Santi Agostino E Giacomo</name><cmt>price: donation;+39 3890271946;https://www.viefrancigene.org/en/resource/accomodation/vf30-90-san-gimignano-ospitale-dei-santi-agostino-e-giacomo/</cmt><desc>price: donation;+39 3890271946;https://www.viefrancigene.org/en/resource/accomodation/vf30-90-san-gimignano-ospitale-dei-santi-agostino-e-giacomo/</desc></wpt>
<wpt lat="43.422537510709105" lon="11.11607573567788"><name>76 Convento Di San Francesco</name><cmt>;+39 0577920040;https://www.viefrancigene.org/en/resource/accomodation/vf30-50-colle-val-delsa-convento-di-san-francesco/</cmt><desc>;+39 0577920040;https://www.viefrancigene.org/en/resource/accomodation/vf30-50-colle-val-delsa-convento-di-san-francesco/</desc></wpt>
<wpt lat="43.38733247621089" lon="11.081491803096855"><name>77 Campo Piro E More</name><cmt>free for tents_ includes fire pit and drinking and washing water;+39 3453918301;https://www.viefrancigene.org/en/resource/accomodation/vf32-50-colle-val-delsa-campo-piro-e-more/</cmt><desc>free for tents_ includes fire pit and drinking and washing water;+39 3453918301;https://www.viefrancigene.org/en/resource/accomodation/vf32-50-colle-val-delsa-campo-piro-e-more/</desc></wpt>
<wpt lat="43.419423545846975" lon="11.132211652472307"><name>78 Ostello Cartiera La Buca</name><cmt>price: 20 incl. breakfast;+39 3391487200;https://www.viefrancigene.org/en/resource/accomodation/vf32-50-colle-val-delsa-ostello-cartiera-la-buca/</cmt><desc>price: 20 incl. breakfast;+39 3391487200;https://www.viefrancigene.org/en/resource/accomodation/vf32-50-colle-val-delsa-ostello-cartiera-la-buca/</desc></wpt>
<wpt lat="43.414734743054005" lon="11.078766232845682"><name>79 La Casina Dei Pellegrini</name><cmt>open all year_ price: donation;+39 3453918301;https://www.viefrancigene.org/en/resource/accomodation/vf32-50-colle-val-delsa-la-casina-dei-pellegrini/</cmt><desc>open all year_ price: donation;+39 3453918301;https://www.viefrancigene.org/en/resource/accomodation/vf32-50-colle-val-delsa-la-casina-dei-pellegrini/</desc></wpt>
<wpt lat="43.38757811798418" lon="11.19493516858455"><name>80 Ospitale S. Cirino E Giacomo</name><cmt>open all year_ donation only for trips min. 30d_ sheets and towels 3_ reservations through last phone number (ideally WhatsApp);+39 3534457274, +39 3356651581, +39 3714717079, +39 327 4246 482;https://www.viefrancigene.org/en/resource/accomodation/vf30-50-abbadia-isola-ospitale-dei-santi-cirino-e/</cmt><desc>open all year_ donation only for trips min. 30d_ sheets and towels 3_ reservations through last phone number (ideally WhatsApp);+39 3534457274, +39 3356651581, +39 3714717079, +39 327 4246 482;https://www.viefrancigene.org/en/resource/accomodation/vf30-50-abbadia-isola-ospitale-dei-santi-cirino-e/</desc></wpt>
<wpt lat="43.387155215345636" lon="11.195112841245878"><name>81 Ostello Contessa Ava Dei Lambardi</name><cmt>first number WhatsApp_ open all year + disruptions in jan-feb_ price: 19_ sleeping bag not allowed;+39 3294080011, +39 05771794759;https://www.viefrancigene.org/en/resource/accomodation/ostello-contessa-ava/</cmt><desc>first number WhatsApp_ open all year + disruptions in jan-feb_ price: 19_ sleeping bag not allowed;+39 3294080011, +39 05771794759;https://www.viefrancigene.org/en/resource/accomodation/ostello-contessa-ava/</desc></wpt>
<wpt lat="43.39016893622902" lon="11.224038585659455"><name>82 Castello Casa Per Ferie Maria Assunta</name><cmt>open all year_ price: 23.5_ price sheets and towel: 3_ donation maybe in winter;+39 3288234546, +39 3371 471 7079, +39 0577 304081;https://www.viefrancigene.org/en/resource/accomodation/vf32-60-monteriggioni-casa-ferie-santa-maria-assun/</cmt><desc>open all year_ price: 23.5_ price sheets and towel: 3_ donation maybe in winter;+39 3288234546, +39 3371 471 7079, +39 0577 304081;https://www.viefrancigene.org/en/resource/accomodation/vf32-60-monteriggioni-casa-ferie-santa-maria-assun/</desc></wpt>
<wpt lat="43.34610532726407" lon="11.246354151976792"><name>83 Agricola Fratelli Marchi</name><cmt>;+39 3289190964;https://www.viefrancigene.org/en/resource/accomodation/vf32-90-monteriggioni-agricola-fratelli-marchi/</cmt><desc>;+39 3289190964;https://www.viefrancigene.org/en/resource/accomodation/vf32-90-monteriggioni-agricola-fratelli-marchi/</desc></wpt>
<wpt lat="43.373616200652144" lon="11.235675702730067"><name>84 Affittacamere La Casella</name><cmt>open all year_ price single room: 30;+39 3284835588;https://www.viefrancigene.org/en/resource/accomodation/vf32-80-monteriggioni-affittacamere-la-casella/</cmt><desc>open all year_ price single room: 30;+39 3284835588;https://www.viefrancigene.org/en/resource/accomodation/vf32-80-monteriggioni-affittacamere-la-casella/</desc></wpt>
<wpt lat="43.31638873338487" lon="11.336701798249287"><name>85 Accoglienza Santa Luisa</name><cmt>;+39 057721271;nan</cmt><desc>;+39 057721271;nan</desc></wpt>
<wpt lat="43.33691363849472" lon="11.33136401400319"><name>86 Camping Siena Colleverde</name><cmt>;+39 0577334080;https://www.viefrancigene.org/en/resource/accomodation/vf33-90-camping-siena-colleverde/</cmt><desc>;+39 0577334080;https://www.viefrancigene.org/en/resource/accomodation/vf33-90-camping-siena-colleverde/</desc></wpt>
<wpt lat="43.315867736343144" lon="11.338572368669668"><name>87 Foresteria San Clemente Ai Servi</name><cmt>;+39 0577222633;https://www.viefrancigene.org/en/resource/accomodation/vf33-90-siena-foresteria-san-clemente-ai-servi/</cmt><desc>;+39 0577222633;https://www.viefrancigene.org/en/resource/accomodation/vf33-90-siena-foresteria-san-clemente-ai-servi/</desc></wpt>
<wpt lat="43.32742999090871" lon="11.330014169480933"><name>88 Camera Sabrina Erdas</name><cmt>;+39 3406047608;https://www.viefrancigene.org/en/resource/accomodation/vf33-90-siena-casa-sabrina-erdas/</cmt><desc>;+39 3406047608;https://www.viefrancigene.org/en/resource/accomodation/vf33-90-siena-casa-sabrina-erdas/</desc></wpt>
<wpt lat="43.316497648080066" lon="11.33662531802602"><name>89 Parrocchia San Martino</name><cmt>open all year_ open 6-22:30;+39 0577 21271, +39 338 604 8009;https://www.viefrancigene.org/en/resource/accomodation/vf33-90-siena-parrocchia-san-martino/</cmt><desc>open all year_ open 6-22:30;+39 0577 21271, +39 338 604 8009;https://www.viefrancigene.org/en/resource/accomodation/vf33-90-siena-parrocchia-san-martino/</desc></wpt>
<wpt lat="43.3405024283129" lon="11.305807357240504"><name>90 Siena Hostel</name><cmt>;+39 05771698177;https://www.google.com/maps/place/Siena+Hostel+Guidoriccio/@43.3406807_11.3054705_19.75z/data=!4m16!1m5!3m4!2zNDPCsDIwJzI1LjgiTiAxMcKwMTgnMjAuOSJF!8m2!3d43.3405024!4d11.3058074!3m9!1s0x132a2cfc7b982003:0x8bc1e84c1b69e776!5m3!1s2025-03-09!4m1!1i1!8m2!3d43.3404551!4d11.3055555!16s%2Fg%2F12hlzsr1c!5m1!1e2?entry=ttu</cmt><desc>;+39 05771698177;https://www.google.com/maps/place/Siena+Hostel+Guidoriccio/@43.3406807_11.3054705_19.75z/data=!4m16!1m5!3m4!2zNDPCsDIwJzI1LjgiTiAxMcKwMTgnMjAuOSJF!8m2!3d43.3405024!4d11.3058074!3m9!1s0x132a2cfc7b982003:0x8bc1e84c1b69e776!5m3!1s2025-03-09!4m1!1i1!8m2!3d43.3404551!4d11.3055555!16s%2Fg%2F12hlzsr1c!5m1!1e2?entry=ttu</desc></wpt>
<wpt lat="43.22505410870831" lon="11.41854446227696"><name>91 Casa Privata Letizia Lusini</name><cmt>;+39 3382172483;https://www.viefrancigene.org/en/resource/accomodation/casa-privata-letizia-lusini/</cmt><desc>;+39 3382172483;https://www.viefrancigene.org/en/resource/accomodation/casa-privata-letizia-lusini/</desc></wpt>
<wpt lat="43.16564968209936" lon="11.467272209176077"><name>92 Centro Cresti</name><cmt>price: donation;+39 3277197439;https://www.viefrancigene.org/en/resource/accomodation/vf32-50-monteroni-darbia-centro-cresti/_ https://centrocresti.it/en/guidelines-2/</cmt><desc>price: donation;+39 3277197439;https://www.viefrancigene.org/en/resource/accomodation/vf32-50-monteroni-darbia-centro-cresti/_ https://centrocresti.it/en/guidelines-2/</desc></wpt>
<wpt lat="42.99956073742458" lon="11.516156410273377"><name>93 Abbazia Di Sant’Antimo</name><cmt>;+39 0577286300;https://www.viefrancigene.org/en/resource/accomodation/vf35-60-torrenieri-abbazia-di-santantimo/</cmt><desc>;+39 0577286300;https://www.viefrancigene.org/en/resource/accomodation/vf35-60-torrenieri-abbazia-di-santantimo/</desc></wpt>
<wpt lat="43.08765445309129" lon="11.544777210317836"><name>94 Pellegrinaio Del Poggio</name><cmt>31.10. - 1.3. only groups_ price: 18 w/o linen;+39 3487372473, +39 3429415024;https://www.viefrancigene.org/en/resource/accomodation/vf35-60-torrenieri-pellegrinaio-del-poggio/</cmt><desc>31.10. - 1.3. only groups_ price: 18 w/o linen;+39 3487372473, +39 3429415024;https://www.viefrancigene.org/en/resource/accomodation/vf35-60-torrenieri-pellegrinaio-del-poggio/</desc></wpt>
<wpt lat="43.06045288546583" lon="11.60308653965561"><name>95 Ostello Parrocchia Collegiata</name><cmt>;+39 0577897236;https://www.viefrancigene.org/en/resource/accomodation/vf34-90-san-quirico-dorcia-collegiata/</cmt><desc>;+39 0577897236;https://www.viefrancigene.org/en/resource/accomodation/vf34-90-san-quirico-dorcia-collegiata/</desc></wpt>
<wpt lat="43.06017649033563" lon="11.603854750485157"><name>96 Il Palazzo Del Pellegrino</name><cmt>;+39 0577899728, +39 3791294369;https://www.viefrancigene.org/en/resource/accomodation/vf34-90-san-quirico-dorcia-foresteria-del-comune/</cmt><desc>;+39 0577899728, +39 3791294369;https://www.viefrancigene.org/en/resource/accomodation/vf34-90-san-quirico-dorcia-foresteria-del-comune/</desc></wpt>
<wpt lat="43.060575715793895" lon="11.603408966964304"><name>97 Ostello parrocchiale</name><cmt>;+39 3477748732, +39 3480838684;https://www.viefrancigene.org/en/resource/accomodation/vf34-20-san-quirico-/</cmt><desc>;+39 3477748732, +39 3480838684;https://www.viefrancigene.org/en/resource/accomodation/vf34-20-san-quirico-/</desc></wpt>
<wpt lat="42.99970306319812" lon="11.68441437105667"><name>98 Ostello La Vecchia Posta</name><cmt>dec to feb only for reservation of groups min. 3p_ price: 16;+39 3319972594, +39 339 1050576;https://www.viefrancigene.org/en/resource/accomodation/vf36-50-castiglione-dorcia-loc-gallina-la-vecchia/</cmt><desc>dec to feb only for reservation of groups min. 3p_ price: 16;+39 3319972594, +39 339 1050576;https://www.viefrancigene.org/en/resource/accomodation/vf36-50-castiglione-dorcia-loc-gallina-la-vecchia/</desc></wpt>
<wpt lat="42.998318376518114" lon="11.684129459164184"><name>99 Il Pollaio</name><cmt>open feb 1 - dec 20_ price: 20;+39 3517299644;https://www.viefrancigene.org/en/resource/accomodation/vf36-50-castiglione-dorcia-loc-gallina-il-pollaio/</cmt><desc>open feb 1 - dec 20_ price: 20;+39 3517299644;https://www.viefrancigene.org/en/resource/accomodation/vf36-50-castiglione-dorcia-loc-gallina-il-pollaio/</desc></wpt>
<wpt lat="42.882441121181756" lon="11.67610466493081"><name>100 Abbazia Del S.S.Mo Salvatore</name><cmt>;+39 0577777352;nan</cmt><desc>;+39 0577777352;nan</desc></wpt>
<wpt lat="42.88026365899586" lon="11.676668370048183"><name>101 Parrocchia Di S. Croce</name><cmt>;+39 0577778225, +39 3291352014, +39 0577 778310;https://www.viefrancigene.org/en/resource/accomodation/vf-36-50-variante-abbadia-san-salvatore-parrocchia/</cmt><desc>;+39 0577778225, +39 3291352014, +39 0577 778310;https://www.viefrancigene.org/en/resource/accomodation/vf-36-50-variante-abbadia-san-salvatore-parrocchia/</desc></wpt>
<wpt lat="42.97626922798844" lon="11.740455730858711"><name>102 Ostello San Rocco</name><cmt>open mar to oct_ price: 18;+39 3386584525;https://www.viefrancigene.org/en/resource/accomodation/vf36-65-contignano-ostello-san-rocco/</cmt><desc>open mar to oct_ price: 18;+39 3386584525;https://www.viefrancigene.org/en/resource/accomodation/vf36-65-contignano-ostello-san-rocco/</desc></wpt>
<wpt lat="42.89602721337096" lon="11.77064461279139"><name>103 Ostello Rifugio Gestri</name><cmt>;+39 3534047717, +39 057855684;https://www.viefrancigene.org/en/resource/accomodation/vf36-90-radicofani-rifugio-alceo-gestri/</cmt><desc>;+39 3534047717, +39 057855684;https://www.viefrancigene.org/en/resource/accomodation/vf36-90-radicofani-rifugio-alceo-gestri/</desc></wpt>
<wpt lat="42.896618737663914" lon="11.76842378653483"><name>104 Ospitale Santi Pietro E Giacomo</name><cmt>;+39 3387982255, +39 3389205540;https://www.viefrancigene.org/en/resource/accomodation/vf36-10-radicofani-casa-daccoglienza-san-jacopo-di/</cmt><desc>;+39 3387982255, +39 3389205540;https://www.viefrancigene.org/en/resource/accomodation/vf36-10-radicofani-casa-daccoglienza-san-jacopo-di/</desc></wpt>
<wpt lat="42.82571044020134" lon="11.778508067500624"><name>105 La Casa Del Pellegrino Accoglienza Santa Elisabetta</name><cmt>price: donation;+39 057850004, +39 3343546142;https://www.viefrancigene.org/en/resource/accomodation/vf37-60-ponte-a-rigo-la-casa-del-pellegrino-santa-elisabetta/</cmt><desc>price: donation;+39 057850004, +39 3343546142;https://www.viefrancigene.org/en/resource/accomodation/vf37-60-ponte-a-rigo-la-casa-del-pellegrino-santa-elisabetta/</desc></wpt>
<wpt lat="42.757254045943036" lon="11.83082116581722"><name>106 Casa Del Pellegrino</name><cmt>;+39 3392586470, +39 3482640781;https://www.viefrancigene.org/en/resource/accomodation/vf36-80-proceno-casa-del-pellegrino/</cmt><desc>;+39 3392586470, +39 3482640781;https://www.viefrancigene.org/en/resource/accomodation/vf36-80-proceno-casa-del-pellegrino/</desc></wpt>
<wpt lat="42.74298305579259" lon="11.86733775805731"><name>108 La Casa Del Pellegrino</name><cmt>;+39 3471662919;nan</cmt><desc>;+39 3471662919;nan</desc></wpt>
<wpt lat="42.73139459234281" lon="11.8614985397635"><name>109 La Casa Di Teo</name><cmt>;+39 3279281046;nan</cmt><desc>;+39 3279281046;nan</desc></wpt>
<wpt lat="42.74514452205576" lon="11.866963108390458"><name>110 Aquesia House</name><cmt>;+39 3458519718;https://www.viefrancigene.org/en/resource/accomodation/vf37-90-acquapendente-aquesia-house/</cmt><desc>;+39 3458519718;https://www.viefrancigene.org/en/resource/accomodation/vf37-90-acquapendente-aquesia-house/</desc></wpt>
<wpt lat="42.74290849399305" lon="11.863904657049783"><name>111 Il Papiro</name><cmt>;+39 3393324227;https://www.google.com/maps/place/Alloggio+turistico+Il+Papiro/@42.742878_11.863892_19.93z/data=!4m12!1m5!3m4!2zNDLCsDQ0JzM0LjYiTiAxMcKwNTEnNTEuNyJF!8m2!3d42.7429392!4d11.8643505!3m5!1s0x13293b8e39b581dd:0x808b76abe43b6ae5!8m2!3d42.742892!4d11.8638999!16s%2Fg%2F11vf389myw!5m1!1e2?entry=ttu</cmt><desc>;+39 3393324227;https://www.google.com/maps/place/Alloggio+turistico+Il+Papiro/@42.742878_11.863892_19.93z/data=!4m12!1m5!3m4!2zNDLCsDQ0JzM0LjYiTiAxMcKwNTEnNTEuNyJF!8m2!3d42.7429392!4d11.8643505!3m5!1s0x13293b8e39b581dd:0x808b76abe43b6ae5!8m2!3d42.742892!4d11.8638999!16s%2Fg%2F11vf389myw!5m1!1e2?entry=ttu</desc></wpt>
<wpt lat="42.74479361791435" lon="11.86603275572217"><name>112 Piccola Perla</name><cmt>;+39 3398105959;https://www.viefrancigene.org/en/resource/accomodation/vf37-90-acquapendente-piccola-perla/</cmt><desc>;+39 3398105959;https://www.viefrancigene.org/en/resource/accomodation/vf37-90-acquapendente-piccola-perla/</desc></wpt>
<wpt lat="42.76875076344578" lon="11.874573613449247"><name>113 Agriturismo Murera</name><cmt>price: 15-20;+39 3336144823, +39 329741836;https://www.viefrancigene.org/en/resource/accomodation/vf37-90-acquapendente-agriturismo-murera/</cmt><desc>price: 15-20;+39 3336144823, +39 329741836;https://www.viefrancigene.org/en/resource/accomodation/vf37-90-acquapendente-agriturismo-murera/</desc></wpt>
<wpt lat="42.64374227524821" lon="11.98896300899089"><name>114 Suore Del Ss Sacramento</name><cmt>type: convents and parishes;+39 0761586210;https://www.viefrancigene.org/en/resource/accomodation/vf37-10-bolsena-istituto-suore-ss-sacramento/</cmt><desc>type: convents and parishes;+39 0761586210;https://www.viefrancigene.org/en/resource/accomodation/vf37-10-bolsena-istituto-suore-ss-sacramento/</desc></wpt>
<wpt lat="42.64650934402865" lon="11.993627487741895"><name>115 Foresteria Santa Maria Del Giglio</name><cmt>;+39 0761799066;https://www.viefrancigene.org/en/resource/accomodation/vf37-90-bolsena-foresteria-santa-maria-del-giglio/</cmt><desc>;+39 0761799066;https://www.viefrancigene.org/en/resource/accomodation/vf37-90-bolsena-foresteria-santa-maria-del-giglio/</desc></wpt>
<wpt lat="42.64542829635086" lon="11.986453895905584"><name>116 Casa Di Preghiera Santa Cristina</name><cmt>;+39 3466044158;https://www.viefrancigene.org/en/resource/accomodation/vf37-90-bolsena-casa-di-preghiera-santa-cristina/</cmt><desc>;+39 3466044158;https://www.viefrancigene.org/en/resource/accomodation/vf37-90-bolsena-casa-di-preghiera-santa-cristina/</desc></wpt>
<wpt lat="42.52998637617224" lon="12.023869300854306"><name>117 Convento Cappuccini Raggio Di Sole</name><cmt>open all year_ price: 12;+39 3475900953;https://www.viefrancigene.org/en/resource/accomodation/vf38-40-montefiascone-convento-raggio-di-sole/</cmt><desc>open all year_ price: 12;+39 3475900953;https://www.viefrancigene.org/en/resource/accomodation/vf38-40-montefiascone-convento-raggio-di-sole/</desc></wpt>
<wpt lat="42.5386786372744" lon="12.03356276701042"><name>118 Monastero San Pietro</name><cmt>type: convents and parishes;+39 0761826066;https://www.viefrancigene.org/en/resource/accomodation/vf38-20-montefiascone-monastero-spietro-monache-be/</cmt><desc>type: convents and parishes;+39 0761826066;https://www.viefrancigene.org/en/resource/accomodation/vf38-20-montefiascone-monastero-spietro-monache-be/</desc></wpt>
<wpt lat="42.51603314513629" lon="12.043807517737747"><name>119 Pop Domus Peregrini</name><cmt>;+39 3381838216, +39 3207772586;https://www.viefrancigene.org/en/resource/accomodation/vf38-80-montefiascone-domus-peregrini/</cmt><desc>;+39 3381838216, +39 3207772586;https://www.viefrancigene.org/en/resource/accomodation/vf38-80-montefiascone-domus-peregrini/</desc></wpt>
<wpt lat="42.542188313818144" lon="12.036832750338851"><name>120 Camere San Flaviano</name><cmt>open all year_ price: 20;+39 3282818278, +39 3381267398;https://www.viefrancigene.org/en/resource/accomodation/vf39-90-montefiascone-camere-san-flaviano/</cmt><desc>open all year_ price: 20;+39 3282818278, +39 3381267398;https://www.viefrancigene.org/en/resource/accomodation/vf39-90-montefiascone-camere-san-flaviano/</desc></wpt>
<wpt lat="42.524035360614654" lon="12.055292598728968"><name>121 I Tulipani Olandesi</name><cmt>open apr to oct_ price: 19;+39 3332930791;https://www.viefrancigene.org/en/resource/accomodation/vf39-90-montefiascone-i-tulipani-olandesi/</cmt><desc>open apr to oct_ price: 19;+39 3332930791;https://www.viefrancigene.org/en/resource/accomodation/vf39-90-montefiascone-i-tulipani-olandesi/</desc></wpt>
<wpt lat="42.5396903520583" lon="12.033522505476343"><name>122 Host 24</name><cmt>open all year;+39 3282818278;https://www.viefrancigene.org/en/resource/accomodation/vf39-90-montefiascone-host-24/</cmt><desc>open all year;+39 3282818278;https://www.viefrancigene.org/en/resource/accomodation/vf39-90-montefiascone-host-24/</desc></wpt>
<wpt lat="42.53359267185915" lon="12.025954266177191"><name>123 Locanda Maddalena</name><cmt>open mar to sep_ price: 20;+39 3394549097, +39 3356152138;https://www.viefrancigene.org/en/resource/accomodation/vf39-90-montefiascone-locanda-maddalena/</cmt><desc>open mar to sep_ price: 20;+39 3394549097, +39 3356152138;https://www.viefrancigene.org/en/resource/accomodation/vf39-90-montefiascone-locanda-maddalena/</desc></wpt>
<wpt lat="42.53609488690291" lon="12.028362845096039"><name>124 La Rocca Alloggio Turistico</name><cmt>open all year_ price: 20;+39 3471173700;https://www.viefrancigene.org/en/resource/accomodation/vf39-90-montefiascone-la-rocca-alloggio-turistico/</cmt><desc>open all year_ price: 20;+39 3471173700;https://www.viefrancigene.org/en/resource/accomodation/vf39-90-montefiascone-la-rocca-alloggio-turistico/</desc></wpt>
<wpt lat="42.41941223595643" lon="12.116584559142442"><name>125 Convento Cappuccini</name><cmt>type: religious;+39 3332314418, +39 0761321945;https://www.viefrancigene.org/en/resource/accomodation/vf39-70-viterbo-convento-cappuccini/</cmt><desc>type: religious;+39 3332314418, +39 0761321945;https://www.viefrancigene.org/en/resource/accomodation/vf39-70-viterbo-convento-cappuccini/</desc></wpt>
<wpt lat="42.41247972283942" lon="12.103503182289058"><name>126 Al Ponte Levatoio</name><cmt>;+39 07611571222, +39 3483707720;nan</cmt><desc>;+39 07611571222, +39 3483707720;nan</desc></wpt>
<wpt lat="42.39704641903865" lon="12.077844055644722"><name>127 BnB Natura Viva</name><cmt>;+39 07611571222, +39 3483707720;nan</cmt><desc>;+39 07611571222, +39 3483707720;nan</desc></wpt>
<wpt lat="42.41375227850571" lon="12.106043491425705"><name>128 Ospitale Del Pellegrino</name><cmt>open mar to sep_ price: donation_ breakfast incl._ only wax stamp in italy;+39 3346960175;https://www.viefrancigene.org/en/resource/accomodation/vf40-90-viterbo-ospitale-del-pellegrino/</cmt><desc>open mar to sep_ price: donation_ breakfast incl._ only wax stamp in italy;+39 3346960175;https://www.viefrancigene.org/en/resource/accomodation/vf40-90-viterbo-ospitale-del-pellegrino/</desc></wpt>
<wpt lat="42.44595976015242" lon="12.101316800599365"><name>129 BnB Casa Di Ale</name><cmt>open all year_ price incl. breakfast: 25;+39 3200112384;https://www.viefrancigene.org/en/resource/accomodation/vf40-90-viterbo-bb-casa-di-ale/</cmt><desc>open all year_ price incl. breakfast: 25;+39 3200112384;https://www.viefrancigene.org/en/resource/accomodation/vf40-90-viterbo-bb-casa-di-ale/</desc></wpt>
<wpt lat="42.41448263833069" lon="12.103618499054026"><name>130 Monastero Clarisse “S. Bernardino Da Siena”</name><cmt>open all year_ price: 20_ breakfast: 8;+39 3393202393, +39 3347405413;https://www.viefrancigene.org/en/resource/accomodation/vf40-90-viterbo-monastero-clarisse-s-bernardo-da-siena/</cmt><desc>open all year_ price: 20_ breakfast: 8;+39 3393202393, +39 3347405413;https://www.viefrancigene.org/en/resource/accomodation/vf40-90-viterbo-monastero-clarisse-s-bernardo-da-siena/</desc></wpt>
<wpt lat="42.41920707104201" lon="12.108096503903111"><name>131 Travel House</name><cmt>open all year_ price: 20;+39 3278348135;https://www.viefrancigene.org/en/resource/accomodation/vf40-90-viterbo-travel-house/</cmt><desc>open all year_ price: 20;+39 3278348135;https://www.viefrancigene.org/en/resource/accomodation/vf40-90-viterbo-travel-house/</desc></wpt>
<wpt lat="42.42339101884668" lon="12.110416701064503"><name>132 Ist. Giovanni Merlini</name><cmt>open jul 1 - sep 10_ sleeping bag incl. breakfast: 16;+39 0761304658, +39 3894994183;https://www.viefrancigene.org/en/resource/accomodation/vf40-90-viterbo-ist-giovanni-merlni/</cmt><desc>open jul 1 - sep 10_ sleeping bag incl. breakfast: 16;+39 0761304658, +39 3894994183;https://www.viefrancigene.org/en/resource/accomodation/vf40-90-viterbo-ist-giovanni-merlni/</desc></wpt>
<wpt lat="42.41836011197952" lon="12.10515502745725"><name>133 L'Archetto</name><cmt>open all year_ price: 20;+39 3278348135;https://www.viefrancigene.org/en/resource/accomodation/vf40-90-viterbo-larchetto/</cmt><desc>open all year_ price: 20;+39 3278348135;https://www.viefrancigene.org/en/resource/accomodation/vf40-90-viterbo-larchetto/</desc></wpt>
<wpt lat="42.41248413965052" lon="12.103363031967204"><name>134 Antica Dogana</name><cmt>;+39 348 3707720;https://www.viefrancigene.org/en/resource/accomodation/vf39-90-viterbo-antica-dogana/</cmt><desc>;+39 348 3707720;https://www.viefrancigene.org/en/resource/accomodation/vf39-90-viterbo-antica-dogana/</desc></wpt>
<wpt lat="42.301023563343755" lon="12.093450837269215"><name>135 Familarca</name><cmt>;+39 3393520365;https://www.viefrancigene.org/en/resource/accomodation/vf40-40-vetralla-associazione-familarca/</cmt><desc>;+39 3393520365;https://www.viefrancigene.org/en/resource/accomodation/vf40-40-vetralla-associazione-familarca/</desc></wpt>
<wpt lat="42.313496000736656" lon="12.075612377862504"><name>136 Monastero Regina Pacis</name><cmt>;+39 0761481519;https://www.viefrancigene.org/en/resource/accomodation/vf40-90-vetralla-monastero-regina-pacis/</cmt><desc>;+39 0761481519;https://www.viefrancigene.org/en/resource/accomodation/vf40-90-vetralla-monastero-regina-pacis/</desc></wpt>
<wpt lat="42.32284296579491" lon="12.050603853956327"><name>137 Ostello/Parrocchia San Francesco</name><cmt>;+39 0761477144, +39 3476598224, +39 0761477105;https://www.viefrancigene.org/en/resource/accomodation/vf40-90-vetralla-parrocchia-san-francesco/</cmt><desc>;+39 0761477144, +39 3476598224, +39 0761477105;https://www.viefrancigene.org/en/resource/accomodation/vf40-90-vetralla-parrocchia-san-francesco/</desc></wpt>
<wpt lat="42.339434987472465" lon="12.06824054247142"><name>138 Agricasale "Oasi del Viandante"</name><cmt>open 15.3.25 - 31.12._ price: 19 + breakfast 6 + dinner 10;+39 3758088224;https://www.viefrancigene.org/en/resource/accomodation/vf41-90-vetralla-agricasale-oasi-del-viandante/</cmt><desc>open 15.3.25 - 31.12._ price: 19 + breakfast 6 + dinner 10;+39 3758088224;https://www.viefrancigene.org/en/resource/accomodation/vf41-90-vetralla-agricasale-oasi-del-viandante/</desc></wpt>
<wpt lat="42.28743697579429" lon="12.218786400255626"><name>139 Casa Del Viandante “La Pace”</name><cmt>;+39 3804339644, +39 3473592061;nan</cmt><desc>;+39 3804339644, +39 3473592061;nan</desc></wpt>
<wpt lat="42.28574371013612" lon="12.21926690871912"><name>140 Casa Del Pellegrino Della Via Francigena</name><cmt>;+39 3791004527, +39 3388196974;nan</cmt><desc>;+39 3791004527, +39 3388196974;nan</desc></wpt>
<wpt lat="42.25585299630515" lon="12.181694292722606"><name>141 Casa Vacanze Castrovecchio</name><cmt>;+39 3397578403, +39 3281911363;https://www.viefrancigene.org/en/resource/accomodation/vf42-70-capranica-casa-vacanze-castrovecchio/</cmt><desc>;+39 3397578403, +39 3281911363;https://www.viefrancigene.org/en/resource/accomodation/vf42-70-capranica-casa-vacanze-castrovecchio/</desc></wpt>
<wpt lat="42.25593611932268" lon="12.183315899234294"><name>142 Pop Road To Rome</name><cmt>open all year_ price: donation;+39 3483595971, +49 15258918235;https://www.viefrancigene.org/en/resource/accomodation/vf42-70-capranica-road-to-rome/</cmt><desc>open all year_ price: donation;+39 3483595971, +49 15258918235;https://www.viefrancigene.org/en/resource/accomodation/vf42-70-capranica-road-to-rome/</desc></wpt>
<wpt lat="42.25637416913798" lon="12.179238617444579"><name>144 La Stanza Del Petrarca</name><cmt>price: free incl. breakfast;+39 3391593598;https://www.viefrancigene.org/en/resource/accomodation/vf42-70-capranica-la-stanza-del-petrarca/</cmt><desc>price: free incl. breakfast;+39 3391593598;https://www.viefrancigene.org/en/resource/accomodation/vf42-70-capranica-la-stanza-del-petrarca/</desc></wpt>
<wpt lat="42.240983566524804" lon="12.225834951376976"><name>145 Casa Vacanze Barbera</name><cmt>open all year_ price: 20;+39 3200327711;https://www.viefrancigene.org/en/resource/accomodation/vf42-90-sutri-casa-vacanze-barbera/</cmt><desc>open all year_ price: 20;+39 3200327711;https://www.viefrancigene.org/en/resource/accomodation/vf42-90-sutri-casa-vacanze-barbera/</desc></wpt>
<wpt lat="42.26194768339994" lon="12.209864447365197"><name>146 Casa Del Pellegrino</name><cmt>;+39 3384181886, +39 3333447870;https://www.viefrancigene.org/en/resource/accomodation/vf42-15-sutri-casa-del-pellegrino/</cmt><desc>;+39 3384181886, +39 3333447870;https://www.viefrancigene.org/en/resource/accomodation/vf42-15-sutri-casa-del-pellegrino/</desc></wpt>
<wpt lat="42.2415188573132" lon="12.224251209519252"><name>147 Casavacanze Platea Oche</name><cmt>;+39 3755924998;https://www.viefrancigene.org/en/resource/accomodation/vf42-90-sutri-platea-oche/</cmt><desc>;+39 3755924998;https://www.viefrancigene.org/en/resource/accomodation/vf42-90-sutri-platea-oche/</desc></wpt>
<wpt lat="42.243253921007074" lon="12.221348632475255"><name>148 Monastero Carmelitane</name><cmt>;+39 0761609082;nan</cmt><desc>;+39 0761609082;nan</desc></wpt>
<wpt lat="42.24235573379914" lon="12.22335552957131"><name>149 Platea Cavour</name><cmt>open all year_ price: 25;+39 3292136615;https://www.viefrancigene.org/en/resource/accomodation/vf42-90-sutri-platea-cavour/</cmt><desc>open all year_ price: 25;+39 3292136615;https://www.viefrancigene.org/en/resource/accomodation/vf42-90-sutri-platea-cavour/</desc></wpt>
<wpt lat="42.24102278464823" lon="12.226790174126084"><name>150 La Casa Dei Libri</name><cmt>price: 20 incl. breakfast;+39 3494559282, +39 3490534428;https://www.viefrancigene.org/en/resource/accomodation/vf42-90-sutri-la-casa-dei-libri/</cmt><desc>price: 20 incl. breakfast;+39 3494559282, +39 3490534428;https://www.viefrancigene.org/en/resource/accomodation/vf42-90-sutri-la-casa-dei-libri/</desc></wpt>
<wpt lat="42.24268633545952" lon="12.223246801224168"><name>151 L’Accoglienza Di Casa Vacanze Salza Nel Borgo</name><cmt>open all year_ price: 20 incl. breakfast;+39 3388601088;https://www.viefrancigene.org/en/resource/accomodation/vf42-90-sutri-l-accoglienza-di-casa-vacanze-salza-nel-borgo/</cmt><desc>open all year_ price: 20 incl. breakfast;+39 3388601088;https://www.viefrancigene.org/en/resource/accomodation/vf42-90-sutri-l-accoglienza-di-casa-vacanze-salza-nel-borgo/</desc></wpt>
<wpt lat="42.236651" lon="12.267812"><name>152 La Sughera</name><cmt>open apr to oct_ price: 20;+39 3276780522;https://www.viefrancigene.org/en/resource/accomodation/vf42-90-sutri-la-sughera/</cmt><desc>open apr to oct_ price: 20;+39 3276780522;https://www.viefrancigene.org/en/resource/accomodation/vf42-90-sutri-la-sughera/</desc></wpt>
<wpt lat="42.14252512749244" lon="12.37950305858158"><name>153 Parrocchia S. Giovanni Battista</name><cmt>;+39 069041094, +39 3339381576;https://www.viefrancigene.org/en/resource/accomodation/vf42-90-campagnano-di-roma-parrocchia-sgiovanni-ba/</cmt><desc>;+39 069041094, +39 3339381576;https://www.viefrancigene.org/en/resource/accomodation/vf42-90-campagnano-di-roma-parrocchia-sgiovanni-ba/</desc></wpt>
<wpt lat="42.1431946430366" lon="12.38458049939511"><name>154 Ostello Per Pellegrini</name><cmt>open all year_ price: 25 (maybe incl. breakfast);+39 3316004982;https://www.ostellocampagnano.eu/ostello-sant-andrea/_ https://www.viefrancigene.org/en/resource/accomodation/vf42-90-campagnano-ostello-pellegrini/</cmt><desc>open all year_ price: 25 (maybe incl. breakfast);+39 3316004982;https://www.ostellocampagnano.eu/ostello-sant-andrea/_ https://www.viefrancigene.org/en/resource/accomodation/vf42-90-campagnano-ostello-pellegrini/</desc></wpt>
<wpt lat="42.01914115534614" lon="12.393554864798206"><name>155 Ostello Di Apollo</name><cmt>;+39 0630890595;nan</cmt><desc>;+39 0630890595;nan</desc></wpt>
<wpt lat="42.01955176822769" lon="12.392223597875262"><name>156 Sotto Al Castello</name><cmt>;+39 3336727228;https://www.viefrancigene.org/en/resource/accomodation/vf44-80-isola-farnese-sotto-al-castello/</cmt><desc>;+39 3336727228;https://www.viefrancigene.org/en/resource/accomodation/vf44-80-isola-farnese-sotto-al-castello/</desc></wpt>
<wpt lat="41.99362543893982" lon="12.373625233699958"><name>157 Base Scout La Valletta</name><cmt>;;https://www.viefrancigene.org/en/resource/accomodation/vf45-90roma-base-scout-la-valletta/</cmt><desc>;;https://www.viefrancigene.org/en/resource/accomodation/vf45-90roma-base-scout-la-valletta/</desc></wpt>
<wpt lat="41.88794496685237" lon="12.476790443169106"><name>158 Spedale della Provvidenza</name><cmt>type: convents and parishes;+39 3272319312, +39 3534286139;https://www.viefrancigene.org/en/resource/accomodation/vf45-50-roma-spedale-della-provvidenza/</cmt><desc>type: convents and parishes;+39 3272319312, +39 3534286139;https://www.viefrancigene.org/en/resource/accomodation/vf45-50-roma-spedale-della-provvidenza/</desc></wpt>
<wpt lat="41.89590318231937" lon="12.494169390309445"><name>159 Ostello Marello</name><cmt>;+39 064882120, +39 064825361;https://www.viefrancigene.org/en/resource/accomodation/vf45-90-roma-ostello-marello/</cmt><desc>;+39 064882120, +39 064825361;https://www.viefrancigene.org/en/resource/accomodation/vf45-90-roma-ostello-marello/</desc></wpt>
<wpt lat="41.92495624333686" lon="12.44136022796175"><name>160 Casa Per Ferie Centro Pellegrini S. Teresa Courdec</name><cmt>big center_ unclear if they have stamp;+39 0635401142;https://www.centropellegrini.it/prenotazioni</cmt><desc>big center_ unclear if they have stamp;+39 0635401142;https://www.centropellegrini.it/prenotazioni</desc></wpt>
<wpt lat="41.94723964366046" lon="12.41049788089468"><name>161 Cobragor</name><cmt>;+39 063386271;https://www.viefrancigene.org/en/resource/accomodation/vf45-90-roma-cobragor/</cmt><desc>;+39 063386271;https://www.viefrancigene.org/en/resource/accomodation/vf45-90-roma-cobragor/</desc></wpt>
<wpt lat="41.68820051817765" lon="12.775991311103697"><name>162 A Casa di Ciccio</name><cmt>;+39 3338159466, +39 3478123667;https://www.viefrancigene.org/en/resource/accomodation/vfs02-90-velletri-a-casa-di-ciccio/</cmt><desc>;+39 3338159466, +39 3478123667;https://www.viefrancigene.org/en/resource/accomodation/vfs02-90-velletri-a-casa-di-ciccio/</desc></wpt>
<wpt lat="41.64304500743431" lon="12.915445712281413"><name>163 Minerva Domus BnB</name><cmt>;+39 3371047141, +39 3357413243;https://www.viefrancigene.org/en/resource/accomodation/vfs03-90-cori-minerva-domus-bb/</cmt><desc>;+39 3371047141, +39 3357413243;https://www.viefrancigene.org/en/resource/accomodation/vfs03-90-cori-minerva-domus-bb/</desc></wpt>
<wpt lat="41.64444854146077" lon="12.90858169944526"><name>164 Il Circo Della Farfalla</name><cmt>open all year_ price: donation;+39 3886223905, +39 3290917657;https://www.viefrancigene.org/en/resource/accomodation/vfs03-90-cori-il-circo-della-farfalla-convento-san/</cmt><desc>open all year_ price: donation;+39 3886223905, +39 3290917657;https://www.viefrancigene.org/en/resource/accomodation/vfs03-90-cori-il-circo-della-farfalla-convento-san/</desc></wpt>
<wpt lat="41.545127098221954" lon="12.995344118072781"><name>165 La Tana Del Coniglio Area Picnic</name><cmt>open spring-autumn_ only camping_ price: 20;+39 3392769739, +39 3285469407;https://www.viefrancigene.org/en/resource/accomodation/vfs06-90-sermoneta-la-tana-del-coniglio-area-picnic/</cmt><desc>open spring-autumn_ only camping_ price: 20;+39 3392769739, +39 3285469407;https://www.viefrancigene.org/en/resource/accomodation/vfs06-90-sermoneta-la-tana-del-coniglio-area-picnic/</desc></wpt>
<wpt lat="41.2810281968896" lon="16.417048918815286"><name>166 Hostel Beltrani</name><cmt>;+39 0883898421;https://www.viefrancigene.org/en/resource/accomodation/vfs03-90-trani-hostel-beltrani/</cmt><desc>;+39 0883898421;https://www.viefrancigene.org/en/resource/accomodation/vfs03-90-trani-hostel-beltrani/</desc></wpt>
<wpt lat="41.27835617520114" lon="16.41619291722812"><name>167 Parrocchia San Chiara</name><cmt>;+39 3275740039;https://www.viefrancigene.org/en/resource/accomodation/vfsv03-90-trani-parrocchia-schiara/</cmt><desc>;+39 3275740039;https://www.viefrancigene.org/en/resource/accomodation/vfsv03-90-trani-parrocchia-schiara/</desc></wpt>
<wpt lat="41.461217974410836" lon="13.167341562953295"><name>168 BnB Domus Victoria</name><cmt>;+39 3332046066, +39 0773911245;nan</cmt><desc>;+39 3332046066, +39 0773911245;nan</desc></wpt>
<wpt lat="41.461217974410836" lon="13.167341562953295"><name>169 BnB Iafrate Daniele</name><cmt>;+39 3332046066, +39 0773911245;nan</cmt><desc>;+39 3332046066, +39 0773911245;nan</desc></wpt>
<wpt lat="41.291823702729936" lon="13.25095342543929"><name>170 Casa Anxur</name><cmt>;+39 3475253941;https://www.viefrancigene.org/en/resource/accomodation/vfs06-90-terracina-casa-anxur/</cmt><desc>;+39 3475253941;https://www.viefrancigene.org/en/resource/accomodation/vfs06-90-terracina-casa-anxur/</desc></wpt>
<wpt lat="41.37756028788329" lon="13.385886836006302"><name>171 Monastero San Magno</name><cmt>;+39 3791552095, +39 3792122700;https://www.viefrancigene.org/en/resource/accomodation/vfs07-10-fondi-monastero-san-magno/</cmt><desc>;+39 3791552095, +39 3792122700;https://www.viefrancigene.org/en/resource/accomodation/vfs07-10-fondi-monastero-san-magno/</desc></wpt>
<wpt lat="41.4148635750519" lon="13.530643781472348"><name>172 Casa in centro</name><cmt>price: 20;+39 329 2564454;https://www.viefrancigene.org/en/resource/accomodation/vfs07-90-fondi-casa-in-centro/</cmt><desc>price: 20;+39 329 2564454;https://www.viefrancigene.org/en/resource/accomodation/vfs07-90-fondi-casa-in-centro/</desc></wpt>
<wpt lat="41.26183585335561" lon="13.634940111475244"><name>173 Suore Salesiane</name><cmt>;+39 0771771117;https://www.viefrancigene.org/en/resource/accomodation/vfs08-10-formia-suore-salesiane/</cmt><desc>;+39 0771771117;https://www.viefrancigene.org/en/resource/accomodation/vfs08-10-formia-suore-salesiane/</desc></wpt>
<wpt lat="41.24635187770817" lon="13.582414800361308"><name>174 Circolo Maremoto</name><cmt>bar open from easter to oct_ open all year for tents_ price: donation;+39 3396687913;https://www.viefrancigene.org/en/resource/accomodation/vfs08-90-formia-circolo-maremoto/</cmt><desc>bar open from easter to oct_ open all year for tents_ price: donation;+39 3396687913;https://www.viefrancigene.org/en/resource/accomodation/vfs08-90-formia-circolo-maremoto/</desc></wpt>
<wpt lat="41.241446991358764" lon="13.735886568212669"><name>175 RoomnRelax</name><cmt>open oct to apr_ price: 20;+39 3921248968;https://www.viefrancigene.org/en/resource/accomodation/vfs09-40-minturno-room-and-relax/</cmt><desc>open oct to apr_ price: 20;+39 3921248968;https://www.viefrancigene.org/en/resource/accomodation/vfs09-40-minturno-room-and-relax/</desc></wpt>
<wpt lat="41.24945408859345" lon="13.741122177457783"><name>176 Parrocchia San Biagio</name><cmt>;+39 0771680137;https://www.viefrancigene.org/en/resource/accomodation/vfs09-40-minturno-parrocchia-di-san-biagio/</cmt><desc>;+39 0771680137;https://www.viefrancigene.org/en/resource/accomodation/vfs09-40-minturno-parrocchia-di-san-biagio/</desc></wpt>
<wpt lat="41.29860850879971" lon="13.826348897759743"><name>177 Elements Hostel</name><cmt>open all year_ price: 20_ no breakfast;+39 3801378004;https://www.viefrancigene.org/en/resource/accomodation/vfs09-50-castelforte-elements-hostel/</cmt><desc>open all year_ price: 20_ no breakfast;+39 3801378004;https://www.viefrancigene.org/en/resource/accomodation/vfs09-50-castelforte-elements-hostel/</desc></wpt>
<wpt lat="41.273247099105305" lon="14.223417837944124"><name>178 Il Giardino Segreto Di Roccaromana</name><cmt>open on request_ price: 15_ suggested donation for breakfast: 3;+39 3475234383;https://www.viefrancigene.org/en/resource/accomodation/vfs15-50-roccaromana/</cmt><desc>open on request_ price: 15_ suggested donation for breakfast: 3;+39 3475234383;https://www.viefrancigene.org/en/resource/accomodation/vfs15-50-roccaromana/</desc></wpt>
<wpt lat="41.243892701180236" lon="13.922712806214399"><name>179 BnB Monte Ofelio</name><cmt>;+39 3278256270;nan</cmt><desc>;+39 3278256270;nan</desc></wpt>
<wpt lat="41.240068250355094" lon="13.934413955587951"><name>181 Circolo Legambiente Alfredo Petteruti Aps</name><cmt>open all year;+39 3884216292;https://www.viefrancigene.org/en/resource/accomodation/vfs09-90-sessa-aurunca-circolo-legambiente-alfredo-petteruti-aps/</cmt><desc>open all year;+39 3884216292;https://www.viefrancigene.org/en/resource/accomodation/vfs09-90-sessa-aurunca-circolo-legambiente-alfredo-petteruti-aps/</desc></wpt>
<wpt lat="41.25171668215281" lon="14.068747024225512"><name>182 Monastero Santa Caterina</name><cmt>;+39 0823875082;nan</cmt><desc>;+39 0823875082;nan</desc></wpt>
<wpt lat="41.24679824258933" lon="14.074404405304628"><name>183 Casa Di Rosa</name><cmt>open all year_ price: 20;+39 3496543368;https://www.viefrancigene.org/en/resource/accomodation/vfs13-90-teano-casa-di-rosa/</cmt><desc>open all year_ price: 20;+39 3496543368;https://www.viefrancigene.org/en/resource/accomodation/vfs13-90-teano-casa-di-rosa/</desc></wpt>
<wpt lat="41.26991242274082" lon="14.314946732539319"><name>184 Don Ciccio Rest n Ride</name><cmt>price: 7_ cold showers;+39 3425285078;https://www.viefrancigene.org/en/resource/accomodation/vfs15-40-paduli-don-ciccio-rest-and-ride/</cmt><desc>price: 7_ cold showers;+39 3425285078;https://www.viefrancigene.org/en/resource/accomodation/vfs15-40-paduli-don-ciccio-rest-and-ride/</desc></wpt>
